City_ID,City,Lat,Lng,Max Temp,Humidity,Cloudiness,Wind Speed,Country,Date
0,vila velha,-20.3297,-40.2925,17.75,94,53,1.34,BR,1690005725
1,west island,-12.1568,96.8225,25.99,78,75,7.2,CC,1690005726
2,margaret river,-33.95,115.0667,16.03,62,18,3.5,AU,1690005727
3,carnarvon,-24.8667,113.6333,23.2,23,0,8.63,AU,1690005608
4,adamstown,-25.066,-130.1015,20.85,68,39,11.81,PN,1690005728
5,port-aux-francais,-49.35,70.2167,0.68,96,100,1.05,TF,1690005728
6,grytviken,-54.2811,-36.5092,-2.03,82,78,5.89,GS,1690005729
7,prado,-17.3411,-39.2208,20.01,78,64,3.89,BR,1690005730
8,lebu,-37.6167,-73.65,10.11,89,100,3.66,CL,1690005731
9,nemuro,43.3236,145.575,16.71,90,24,6.43,JP,1690005616
10,kailua-kona,19.6406,-155.9956,27.98,86,100,6.69,US,1690005732
11,chernyshevskiy,63.0128,112.4714,29.63,29,18,3.94,RU,1690005733
12,isangel,-19.55,169.2667,20.98,60,53,3.22,VU,1690005734
13,katabu,-4.9333,122.5167,27.62,66,48,3.2,ID,1690005734
14,albany,42.6001,-73.9662,18.48,92,1,2.87,US,1690005735
15,hawaiian paradise park,19.5933,-154.9731,24.85,94,41,1.68,US,1690005736
16,port alfred,-33.5906,26.891,18.14,60,63,6.14,ZA,1690005736
17,tayshet,55.9342,98.0044,28.31,32,95,4.44,RU,1690005737
18,east london,-33.0153,27.9116,18.52,55,0,5.14,ZA,1690005738
19,waitangi,-43.9535,-176.5597,12.12,92,100,3.13,NZ,1690005738
20,port mathurin,-19.6833,63.4167,23.16,74,81,9.86,MU,1690005739
21,college,64.8569,-147.8028,25.97,57,20,2.06,US,1690005740
22,puerto natales,-51.7236,-72.4875,-2.96,91,100,0.45,CL,1690005740
23,edinburgh of the seven seas,-37.0676,-12.3116,12.84,75,99,10.0,SH,1690005741
24,kirensk,57.7853,108.1119,29.56,31,4,1.71,RU,1690005563
25,severoural'sk,60.1533,59.952,21.49,49,42,3.97,RU,1690005743
26,blackmans bay,-43.0167,147.3167,13.62,67,96,2.55,AU,1690005743
27,ribeira grande,38.5167,-28.7,19.87,90,10,3.13,PT,1690005745
28,mesquite,32.7668,-96.5992,28.93,73,0,2.24,US,1690005746
29,invercargill,-46.4,168.35,4.04,82,6,2.38,NZ,1690005600
30,vilyuchinsk,52.9306,158.4028,25.15,69,64,4.27,RU,1690005747
31,quang ngai,15.1167,108.8,31.35,66,89,3.22,VN,1690005631
32,alta,69.9689,23.2717,10.59,80,100,4.47,NO,1690005749
33,tura,25.5198,90.2201,28.65,84,93,0.98,IN,1690005488
34,chibougamau,49.9168,-74.3659,12.43,97,100,2.04,CA,1690005750
35,hermanus,-34.4187,19.2345,10.56,60,100,3.4,ZA,1690005751
36,bilibino,68.0546,166.4372,24.2,45,67,2.03,RU,1690005751
37,pisco,-13.7,-76.2167,18.34,76,20,0.98,PE,1690005752
38,khuzdar,27.7384,66.6434,29.64,53,100,1.78,PK,1690005753
39,talnakh,69.4865,88.3972,26.23,39,95,3.53,RU,1690005754
40,pontianak,-0.0333,109.3333,30.99,62,75,2.06,ID,1690005633
41,isafjordur,66.0755,-23.124,10.78,75,98,0.93,IS,1690005755
42,sao miguel do araguaia,-13.275,-50.1628,19.88,55,1,2.42,BR,1690005756
43,smithers,54.7804,-127.1743,13.42,86,90,1.43,CA,1690005757
44,saipan,15.1355,145.701,29.25,100,100,4.92,MP,1690005758
45,namibe,-15.1961,12.1522,17.56,87,14,2.45,AO,1690005759
46,ilulissat,69.2167,-51.1,4.01,100,40,0.0,GL,1690005760
47,'ain deheb,34.8422,1.547,26.34,29,19,2.64,DZ,1690005760
48,vershino-darasunskiy,52.35,115.5167,24.23,27,98,4.61,RU,1690005761
49,flin flon,54.7682,-101.865,16.36,67,32,2.48,CA,1690005762
50,anadyr,64.75,177.4833,17.28,77,0,5.0,RU,1690005763
51,shiguai,40.7058,110.2856,26.53,39,29,4.41,CN,1690005764
52,al khafji,28.4391,48.4913,38.74,27,33,6.66,SA,1690005765
53,tofol,5.3248,163.0078,27.57,81,100,6.64,FM,1690005765
54,katutura,-22.521,17.0557,13.84,38,0,0.45,,1690005766
55,antonio enes,-16.2325,39.9086,23.72,69,31,4.85,MZ,1690005767
56,my tho,10.35,106.35,28.89,82,91,4.34,VN,1690005353
57,colonia,50.9333,6.95,16.35,75,0,0.51,DE,1690005610
58,hadibu,12.65,54.0333,26.62,75,53,15.14,YE,1690005769
59,klyuchi,52.2667,79.1667,21.69,67,53,9.47,RU,1690005770
60,bokani,9.4333,5.2,23.35,98,100,1.45,NG,1690005771
61,omdurman,15.6445,32.4777,32.62,45,94,9.55,SD,1690005772
62,dryden,49.7833,-92.7503,14.8,80,69,2.57,CA,1690005773
63,saint-francois,46.4154,3.9054,15.38,100,0,0.51,FR,1690005773
64,uturoa,-16.7333,-151.4333,24.6,64,17,6.04,PF,1690005774
65,tobelo,1.7284,128.0095,28.75,69,33,2.17,ID,1690005775
66,qarazhal,48.0078,70.7903,27.71,23,1,4.23,KZ,1690005775
67,tolanaro,-25.0319,46.9987,20.6,74,68,5.32,MG,1690005777
68,nova vicosa,-17.8919,-39.3719,21.44,69,60,5.28,BR,1690005777
69,alice springs,-23.7,133.8833,16.75,29,0,6.69,AU,1690005778
70,trongsa,27.5026,90.5072,25.15,60,65,2.66,BT,1690005779
71,puerto ayora,-0.7393,-90.3518,24.65,81,98,4.8,EC,1690005780
72,argo,37.6333,22.7333,29.88,30,0,1.21,GR,1690005780
73,portland,45.5234,-122.6762,24.86,57,0,2.06,US,1690005732
74,sao vicente,-23.9631,-46.3919,20.15,26,1,0.84,BR,1690005781
75,papatowai,-46.5619,169.4708,6.16,78,5,6.22,NZ,1690005782
76,kigoma,-4.8769,29.6267,23.97,43,17,5.66,TZ,1690005759
77,port lincoln,-34.7333,135.8667,13.14,70,88,8.36,AU,1690005653
78,sisimiut,66.9395,-53.6735,6.81,92,99,1.1,GL,1690005785
79,makokou,0.5738,12.8642,21.62,89,87,1.43,GA,1690005785
80,ingeniero guillermo n. juarez,-23.9,-61.85,27.16,28,5,8.66,AR,1690005786
81,dampit,-8.2116,112.7493,28.51,52,2,3.34,ID,1690005787
82,mount gambier,-37.8333,140.7667,11.09,91,91,3.56,AU,1690005788
83,broken hill,-31.95,141.4333,13.52,43,26,4.24,AU,1690005789
84,kyzylorda,44.8528,65.5092,33.01,22,0,4.0,KZ,1690005790
85,sinop,41.7711,34.8709,22.24,43,0,1.14,TR,1690005791
86,yuzhno-kurilsk,44.0306,145.8556,18.26,83,37,4.84,RU,1690005551
87,beacon square,28.2086,-82.7554,30.55,82,10,0.45,US,1690005792
88,port elizabeth,-33.918,25.5701,13.45,81,80,2.32,ZA,1690005793
89,berdigestyakh,62.0989,126.6992,24.4,35,12,4.07,RU,1690005794
90,thompson,55.7435,-97.8558,16.09,88,75,2.57,CA,1690005795
91,lepsy,46.235,78.9456,34.96,15,0,3.5,KZ,1690005795
92,parauapebas,-6.0675,-49.9022,18.95,52,0,0.38,BR,1690005797
93,iqaluit,63.7506,-68.5145,5.39,93,88,0.46,CA,1690005777
94,bethel,41.3712,-73.414,20.93,86,0,0.0,US,1690005798
95,phan rang-thap cham,11.5667,108.9833,29.13,76,100,2.59,VN,1690005592
96,lucon,46.4577,-1.1651,17.05,82,14,2.15,FR,1690005799
97,lagoa,39.05,-27.9833,20.49,82,47,1.01,PT,1690005800
98,queenstown,-31.8976,26.8753,10.69,72,51,6.69,ZA,1690005605
99,xining,36.6167,101.7667,25.62,28,30,1.35,CN,1690005732
100,constantia,44.1833,28.65,24.38,66,2,8.12,RO,1690005802
101,vila franca do campo,37.7167,-25.4333,19.23,88,46,1.84,PT,1690005802
102,wailua homesteads,22.0669,-159.378,26.44,81,40,5.66,US,1690005803
103,enewetak,11.3474,162.3373,28.81,77,92,6.09,MH,1690005804
104,utrik,11.2278,169.8474,28.16,78,79,6.61,MH,1690005805
105,dudinka,69.4058,86.1778,26.46,61,63,3.35,RU,1690005520
106,stanley,54.868,-1.6985,11.96,94,75,2.06,GB,1690005806
107,sitka,57.0531,-135.33,15.94,77,100,2.06,US,1690005807
108,keflavik,64.0049,-22.5624,11.24,76,100,3.6,IS,1690005808
109,lata,40.1629,-8.3327,16.15,96,30,1.09,PT,1690005809
110,nova sintra,14.8667,-24.7167,22.82,80,46,6.86,CV,1690005809
111,avarua,-21.2078,-159.775,20.03,88,75,3.09,CK,1690005810
112,flying fish cove,-10.4217,105.6791,25.82,78,100,6.69,CX,1690005811
113,lospalos,-8.5186,127.0025,24.96,63,39,4.78,TL,1690005812
114,qaqortoq,60.7167,-46.0333,6.02,97,76,0.31,GL,1690005813
115,pochinok,54.4068,32.4407,17.53,63,37,3.24,RU,1690005814
116,petropavlovsk-kamchatsky,53.0452,158.6483,24.33,57,40,3.0,RU,1690005814
117,la passe,45.5549,-0.8967,17.77,70,0,1.98,FR,1690005815
118,zhangatas,43.5667,69.75,33.56,19,0,6.36,KZ,1690005816
119,yeed,4.55,43.0333,26.03,62,75,11.06,SO,1690005818
120,bloemfontein,-29.1211,26.214,6.54,90,25,5.52,ZA,1690005819
121,weno,7.4515,151.8468,28.73,77,99,6.07,FM,1690005819
122,cidreira,-30.1811,-50.2056,16.55,94,66,5.26,BR,1690005820
123,kavaratti,10.5669,72.642,28.34,81,89,9.39,IN,1690005820
124,villa de cos,23.2833,-102.35,19.5,61,69,5.48,MX,1690005821
125,wajir,1.7471,40.0573,25.75,64,58,9.01,KE,1690005822
126,yunyang,33.4474,112.7142,34.49,49,0,2.97,CN,1690005823
127,lautoka,-17.6167,177.4667,23.92,78,20,1.03,FJ,1690005824
128,ushuaia,-54.8,-68.3,-6.71,81,47,2.35,AR,1690005824
129,inarajan village,13.2736,144.7484,32.54,83,85,5.6,GU,1690005825
130,gadzhiyevo,69.2551,33.3362,9.94,75,98,8.44,RU,1690005826
131,ust-tsilma,65.441,52.1498,17.56,83,88,2.38,RU,1690005827
132,olonkinbyen,70.9221,-8.7187,5.76,79,99,2.61,SJ,1690005828
133,ancud,-41.8697,-73.8203,7.78,89,94,2.24,CL,1690005828
134,qui nhon,13.7667,109.2333,29.99,67,99,3.78,VN,1690005716
135,santa cruz,-17.8,-63.1667,21.1,59,0,5.52,BO,1690005830
136,amarante,-6.2411,-42.8547,18.85,62,3,1.91,BR,1690005830
137,westport,41.1415,-73.3579,23.19,88,0,2.06,US,1690005831
138,touros,-5.1989,-35.4608,22.09,85,2,5.92,BR,1690005831
139,kushikino,31.7167,130.2667,27.03,85,100,1.57,JP,1690005832
140,novyy urgal,51.0736,132.5642,28.32,29,100,3.17,RU,1690005711
141,holualoa,19.6228,-155.9522,25.91,85,75,6.17,US,1690005833
142,hotan,37.0997,79.9269,34.46,17,99,6.65,CN,1690005834
143,newman,37.3138,-121.0208,30.99,68,20,2.34,US,1690005834
144,puerto baquerizo moreno,-0.9,-89.6,24.47,80,88,6.23,EC,1690005835
145,ghadamis,30.1337,9.5007,31.35,18,0,5.1,LY,1690005836
146,porto novo,6.4965,2.6036,24.38,91,99,3.11,BJ,1690005837
147,winsen,53.3667,10.2167,14.03,98,18,4.26,DE,1690005838
148,port macquarie,-31.4333,152.9167,17.16,58,24,6.19,AU,1690005562
149,iskateley,67.6803,53.1512,12.46,87,99,5.93,RU,1690005839
150,howrah,22.5892,88.3103,31.0,79,40,6.17,IN,1690005713
151,agaro,7.85,36.65,16.91,94,100,0.35,ET,1690005840
152,chonchi,-42.6128,-73.8092,7.29,97,100,0.78,CL,1690005842
153,tiksi,71.6872,128.8694,12.03,62,44,7.05,RU,1690005843
154,usinsk,65.9939,57.5281,17.52,91,100,1.27,RU,1690005844
155,selfoss,63.9331,-20.9971,10.58,90,76,0.99,IS,1690005844
156,nuriootpa,-34.4833,139.0,11.42,80,70,5.73,AU,1690005845
157,jamestown,42.097,-79.2353,16.51,98,0,0.0,US,1690005847
158,georgetown,5.4112,100.3354,31.96,100,20,4.12,MY,1690005605
159,lydney,51.726,-2.5261,15.29,91,100,1.79,GB,1690005848
160,yellowknife,62.456,-114.3525,19.29,48,100,2.57,CA,1690005849
161,cabo san lucas,22.8909,-109.9124,32.01,72,1,5.57,MX,1690005849
162,aykhal,66.0,111.5,26.69,37,58,8.14,RU,1690005850
163,kaifeng,34.7911,114.3483,32.34,56,79,1.22,CN,1690005687
164,hamilton,39.1834,-84.5333,19.93,88,0,2.57,US,1690005852
165,cidade velha,14.9167,-23.6167,26.26,73,75,5.14,CV,1690005852
166,kenora,49.8167,-94.4337,18.21,82,72,2.68,CA,1690005853
167,st. john's,47.5649,-52.7093,20.71,92,55,2.8,CA,1690005854
168,bredasdorp,-34.5322,20.0403,6.87,68,100,2.0,ZA,1690005855
169,punta arenas,-53.15,-70.9167,-2.82,74,99,3.06,CL,1690005856
170,gwanda,-20.9333,29.0,11.46,95,100,3.35,ZW,1690005856
171,udachny,66.4167,112.4,27.44,38,87,7.66,RU,1690005857
172,mount pearl,47.5166,-52.7813,20.25,92,51,0.89,CA,1690005858
173,pimenta bueno,-11.6725,-61.1936,18.44,48,0,0.63,BR,1690005858
174,geraldton,-28.7667,114.6,20.23,52,0,4.63,AU,1690005718
175,"laikit, laikit ii (dimembe)",1.4792,124.9735,31.47,52,40,6.69,ID,1690005859
176,fuglafjordur,62.244,-6.814,11.26,93,81,3.31,FO,1690005860
177,mhamid,29.82,-5.72,31.33,12,0,2.38,MA,1690005861
178,fuxin,42.0156,121.6589,20.17,98,100,6.85,CN,1690005861
179,san julian,21.0167,-102.1667,15.61,70,65,2.25,MX,1690005862
180,olinda,-8.0089,-34.8553,25.85,73,75,5.14,BR,1690005863
181,burgdorf,52.4463,10.0064,15.57,80,39,4.63,DE,1690005864
182,haiku-pauwela,20.9219,-156.3051,24.47,82,40,8.23,US,1690005865
183,kabalo,-6.05,26.9167,25.91,33,1,3.5,CD,1690005865
184,hobyo,5.3505,48.5268,27.54,70,93,11.67,SO,1690005866
185,tazovsky,67.4667,78.7,20.58,68,97,3.75,RU,1690005866
186,de aar,-30.6497,24.0123,7.57,92,59,5.32,ZA,1690005867
187,rio grande,-32.035,-52.0986,16.64,89,96,6.16,BR,1690005867
188,merizo village,13.2658,144.6691,32.31,83,87,5.58,GU,1690005868
189,vorgashor,67.5833,63.95,21.8,66,100,4.13,RU,1690005869
190,polyarnyy,69.1989,33.4478,10.18,75,97,8.27,RU,1690005869
191,akureyri,65.6835,-18.0878,11.93,69,100,1.78,IS,1690005870
192,puerto aysen,-45.4,-72.7,1.98,99,100,1.76,CL,1690005871
193,sandpoint,48.2766,-116.5533,22.6,61,0,0.0,US,1690005872
194,chornomors'k,46.305,30.6548,24.99,62,11,7.53,UA,1690005873
195,kasongo-lunda,-6.4667,16.8167,21.47,56,8,0.52,CD,1690005873
196,remire-montjoly,4.9167,-52.2667,24.02,100,100,0.0,GF,1690005874
197,juneau,58.3019,-134.4197,15.61,91,40,0.0,US,1690005874
198,arraial do cabo,-22.9661,-42.0278,20.68,75,56,7.54,BR,1690005875
199,aksu,41.1231,80.2644,35.94,17,78,1.93,CN,1690005686
200,newton,42.337,-71.2092,19.5,95,100,1.54,US,1690005876
201,ta`u,-14.2336,-169.5144,27.67,80,32,3.8,AS,1690005877
202,six-fours-les-plages,43.0938,5.84,23.99,68,55,0.45,FR,1690005878
203,rongelap,11.1635,166.8941,28.66,75,99,5.51,MH,1690005879
204,coxen hole,16.3244,-86.5366,27.6,83,20,5.14,HN,1690005880
205,saurimo,-9.6608,20.3916,18.45,40,15,2.17,AO,1690005881
206,tralee,52.2704,-9.7026,15.48,99,100,2.77,IE,1690005881
207,caldwell,43.6629,-116.6874,29.95,37,0,2.57,US,1690005882
208,nova xavantina,-14.6667,-52.35,18.27,56,0,1.13,BR,1690005883
209,el fasher,13.6279,25.3494,30.84,44,100,4.26,SD,1690005883
210,juruti,-2.1522,-56.0922,26.02,66,57,2.05,BR,1690005884
211,whitehorse,60.7161,-135.0538,17.67,74,100,0.45,CA,1690005885
212,barranca,-10.75,-77.7667,18.88,84,48,4.23,PE,1690005886
213,tinqueux,49.25,3.9833,14.04,87,0,0.0,FR,1690005886
214,saarijarvi,62.7049,25.254,14.09,85,100,3.03,FI,1690005887
215,oamaru,-45.0784,170.9801,6.32,78,21,4.12,NZ,1690005888
216,dalnerechensk,45.9339,133.7225,30.02,59,84,3.15,RU,1690005888
217,nuku'alofa,-21.1333,-175.2,23.19,88,75,2.06,TO,1690005889
218,kokstad,-30.5472,29.4241,8.07,63,60,1.87,ZA,1690005890
219,crane,31.3974,-102.3501,28.19,44,46,8.27,US,1690005890
220,wenzhou,27.9994,120.6668,30.67,79,93,2.48,CN,1690005791
221,tapes,-30.6733,-51.3958,16.78,91,72,3.2,BR,1690005891
222,alpine,32.835,-116.7664,24.49,62,0,0.0,US,1690005892
223,huarmey,-10.0681,-78.1522,19.53,87,28,4.2,PE,1690005893
224,teluknaga,-6.0989,106.6381,33.1,55,20,5.66,ID,1690005894
225,lompoc,34.6391,-120.4579,17.08,95,100,2.57,US,1690005894
226,ulladulla,-35.35,150.4667,14.16,57,21,3.06,AU,1690005635
227,navia,43.5354,-6.7194,16.45,93,71,0.12,ES,1690005895
228,fisterra,42.9049,-9.2629,15.97,82,35,6.35,ES,1690005896
229,ust-nera,64.5667,143.2,14.11,93,100,2.08,RU,1690005896
230,new shagunnu,10.3396,4.4688,25.36,88,100,2.97,NG,1690005897
231,borazjan,29.2666,51.2159,41.4,12,54,1.67,IR,1690005898
232,aban,56.67,96.06,27.04,46,100,2.31,RU,1690005898
233,longyearbyen,78.2186,15.6401,7.91,66,75,3.09,SJ,1690005899
234,mirnyy,62.5353,113.9611,29.02,28,20,7.15,RU,1690005900
235,antsiranana,-12.2787,49.2917,26.33,55,50,9.09,MG,1690005900
236,brejo da madre de deus,-8.1458,-36.3711,15.3,96,13,2.76,BR,1690005901
237,nekrasovskiy,56.0667,37.5,18.04,67,0,5.0,RU,1690005902
238,ellsworth,44.5434,-68.4195,18.09,98,100,0.0,US,1690005902
239,mabaruma,8.2,-59.7833,23.28,97,79,1.35,GY,1690005903
240,manaure,11.7751,-72.4445,27.29,75,70,4.59,CO,1690005904
241,andergrove,-21.0833,149.1833,21.17,66,35,2.33,AU,1690005904
242,luderitz,-26.6481,15.1594,12.76,49,97,3.09,,1690005905
243,karratha,-20.7377,116.8463,25.81,21,1,9.81,AU,1690005905
244,salinas,36.6777,-121.6555,21.67,84,0,3.6,US,1690005906
245,freetown,8.484,-13.2299,24.21,92,100,3.22,SL,1690005773
246,magadan,59.5667,150.8,20.85,87,98,3.08,RU,1690005907
247,midvagur,62.0511,-7.1939,11.46,82,100,2.57,FO,1690005908
248,nar'yan-mar,67.6713,53.087,12.24,88,99,5.95,RU,1690005909
249,okmulgee,35.6234,-95.9605,22.43,100,100,4.12,US,1690005910
250,upata,8.0086,-62.3989,24.0,96,98,1.48,VE,1690005910
251,berezovyy,51.6667,135.7,30.42,24,76,4.84,RU,1690005912
252,balabac,7.9868,117.0645,27.8,81,100,3.93,PH,1690005912
253,miri,4.4148,114.0089,28.59,69,98,2.96,MY,1690005913
254,la sarre,48.8002,-79.1996,7.92,77,0,2.66,CA,1690005914
255,boda,4.3189,17.4695,22.56,89,79,1.04,CF,1690005915
256,penn yan,42.6609,-77.0539,17.4,77,0,1.54,US,1690005916
257,homer,59.6425,-151.5483,14.94,78,75,0.89,US,1690005916
258,becerril,9.7041,-73.2793,25.09,78,97,1.16,CO,1690005917
259,aasiaat,68.7098,-52.8699,3.12,98,100,3.67,GL,1690005918
260,bat khela,34.6167,71.9714,32.69,51,21,2.33,PK,1690005918
261,kiunga,-6.1219,141.2906,24.81,90,98,0.35,PG,1690005919
262,laguna,38.421,-121.4238,30.22,42,0,2.06,US,1690005919
263,badger,64.8,-147.5333,25.93,59,0,2.06,US,1690005920
264,yakeshi,49.2833,120.7333,18.36,93,100,3.56,CN,1690005921
265,betul,21.9153,77.8961,28.66,74,100,5.3,IN,1690005922
266,kingscliff,-28.2667,153.5667,20.96,52,1,6.17,AU,1690005922
267,fortuna,40.5982,-124.1573,14.4,95,100,0.89,US,1690005923
268,wang nam yen,13.5033,102.1812,31.63,62,97,1.89,TH,1690005924
269,amga,60.8953,131.9608,22.5,36,2,5.28,RU,1690005924
270,aldama,22.9167,-98.0667,28.05,93,53,0.52,MX,1690005925
271,tromso,69.6496,18.957,15.77,87,75,0.0,NO,1690005926
272,kingston,17.997,-76.7936,26.25,85,30,0.89,JM,1690005927
273,ghat,24.9647,10.1728,30.56,14,0,1.58,LY,1690005928
274,vernon,50.2581,-119.2691,18.8,72,85,0.23,CA,1690005754
275,cabedelo,-6.9811,-34.8339,22.37,84,34,5.29,BR,1690005929
276,severo-yeniseyskiy,60.3725,93.0408,26.16,38,87,2.78,RU,1690005930
277,fauske,67.2588,15.3918,14.41,95,100,0.43,NO,1690005931
278,moyale,3.5167,39.0584,20.57,67,98,8.16,KE,1690005931
279,merano,46.6682,11.1595,21.99,80,29,0.99,IT,1690005932
280,tsiombe,-25.3,45.4833,20.3,64,23,5.11,MG,1690005933
281,tshela,-4.9833,12.9333,20.41,88,100,0.77,CD,1690005933
282,arteche,12.2645,125.4048,28.77,83,99,4.13,PH,1690005934
283,kangding,30.0513,101.9603,25.22,44,7,2.93,CN,1690005927
284,nogliki,51.8333,143.1667,23.79,66,95,3.64,RU,1690005935
285,belyy yar,53.6039,91.3903,25.94,61,0,2.0,RU,1690005936
286,naze,28.3667,129.4833,27.83,75,99,3.15,JP,1690005937
287,gordonvale,-17.0936,145.7842,28.84,56,38,2.31,AU,1690005938
288,horta,38.5333,-28.6333,19.45,90,17,3.13,PT,1690005938
289,codrington,-38.2667,141.9667,13.32,72,97,3.66,AU,1690005939
290,gereida,11.2811,25.1414,28.12,62,99,4.23,SD,1690005940
291,dwarka,22.2394,68.9678,28.98,81,100,6.87,IN,1690005940
292,bom jardim,-7.7958,-35.5872,17.55,93,22,1.71,BR,1690005941
293,fale old settlement,-9.3852,-171.2468,28.54,72,31,3.79,TK,1690005942
294,kerikeri,-35.2268,173.9474,14.95,83,99,1.41,NZ,1690005657
295,kuluncak,38.8828,37.6728,23.13,35,0,3.5,TR,1690005944
296,lamesa,32.7376,-101.951,24.73,58,92,7.2,US,1690005944
297,applewood,39.7578,-105.1625,19.72,66,0,4.63,US,1690005945
298,kalix,65.853,23.1565,10.94,95,100,5.0,SE,1690005945
299,kargopol',61.5071,38.9456,12.13,97,100,5.14,RU,1690005946
300,cockburn town,21.4612,-71.1419,27.56,76,93,6.5,TC,1690005947
301,waterloo,43.4668,-80.5164,17.03,96,0,1.34,CA,1690005948
302,ciudad lazaro cardenas,17.9583,-102.2,26.86,87,29,0.94,MX,1690005904
303,kodiak,57.79,-152.4072,14.73,77,0,2.06,US,1690005949
304,mayenne,48.3333,-0.6667,11.69,90,75,2.2,FR,1690005949
305,guerrero negro,27.9769,-114.0611,19.57,82,47,5.91,MX,1690005950
306,xichang,27.8964,102.2634,28.33,51,62,1.37,CN,1690005859
307,san antonio de pale,-1.4014,5.6325,23.0,76,56,5.8,GQ,1690005951
308,tres barras,-26.1064,-50.3222,12.31,99,49,1.13,BR,1690005952
309,sandnessjoen,66.0217,12.6316,13.29,94,100,2.1,NO,1690005953
310,chegdomyn,51.1167,133.0167,27.36,32,100,2.41,RU,1690005954
311,egilsstadir,65.2653,-14.3948,11.23,78,68,1.97,IS,1690005954
312,tommot,58.9564,126.2925,21.51,77,26,3.63,RU,1690005955
313,taoudenni,22.6783,-3.9836,33.79,15,15,1.52,ML,1690005956
314,kill devil hills,36.0307,-75.676,25.01,77,0,0.0,US,1690005957
315,likiep,9.8251,169.3107,28.52,75,99,5.97,MH,1690005957
316,kushiro,42.975,144.3747,21.53,83,75,6.69,JP,1690005958
317,santa rosalia,27.3167,-112.2833,31.68,50,78,1.48,MX,1690005959
318,gaalkacyo,6.7697,47.4308,28.14,56,100,11.54,SO,1690005960
319,chui,-33.6971,-53.4616,16.9,89,83,4.35,UY,1690005960
320,sechura,-5.5569,-80.8222,21.51,76,0,3.85,PE,1690005962
321,afaahiti,-17.75,-149.2833,21.93,64,36,5.06,PF,1690005963
322,kozani,40.3011,21.7864,26.38,44,0,0.0,GR,1690005964
323,amboasary,-25.0333,46.3833,20.09,68,29,2.55,MG,1690005965
324,jiaojiang,28.6803,121.4428,34.44,67,77,7.49,CN,1690005966
325,utete,-7.986,38.758,27.96,40,57,3.04,TZ,1690005966
326,sarmiento,-45.5882,-69.07,3.79,75,95,4.96,AR,1690005967
327,vadso,70.0744,29.7487,9.09,87,100,7.72,NO,1690005968
328,muynoq,43.7683,59.0214,34.47,25,4,2.52,UZ,1690005969
329,novodvinsk,64.4165,40.8122,15.11,92,97,2.05,RU,1690005971
330,zima,53.9202,102.0442,27.26,34,0,5.18,RU,1690005972
331,lorengau,-2.0226,147.2712,29.59,70,28,3.37,PG,1690005972
332,lima,-12.0432,-77.0282,20.14,80,100,6.17,PE,1690005831
333,songyang,34.4553,113.0281,34.14,43,5,3.1,CN,1690005974
334,ripanj,44.639,20.5204,21.06,83,1,2.4,RS,1690005975
335,hammerfest,70.6634,23.6821,10.25,76,100,5.66,NO,1690005975
336,acapulco de juarez,16.8634,-99.8901,29.9,84,100,1.54,MX,1690005939
337,copala,16.65,-98.9833,26.18,82,100,1.51,MX,1690005977
338,juan de ayolas,-27.4,-56.9,23.53,60,74,6.99,PY,1690005977
339,cromwell,41.5951,-72.6454,20.06,96,0,1.54,US,1690005978
340,gobabis,-22.45,18.9667,9.87,64,1,4.37,,1690005979
341,pierre,44.3683,-100.351,20.15,72,0,1.54,US,1690005980
342,oriximina,-1.7656,-55.8661,24.07,73,27,1.37,BR,1690005980
343,misawa,40.6836,141.3597,24.13,78,60,3.75,JP,1690005981
344,kutoarjo,-7.7169,109.9128,29.08,56,41,5.08,ID,1690005982
345,kapuskasing,49.4169,-82.4331,9.51,66,1,1.38,CA,1690005983
346,walvis bay,-22.9575,14.5053,12.06,80,0,2.24,,1690005983
347,komoro,36.3167,138.4333,31.7,58,53,1.34,JP,1690005984
348,kone,-21.0595,164.8658,19.84,63,64,3.56,NC,1690005985
349,kadugli,11.0167,29.7167,25.61,79,100,5.6,SD,1690005986
350,salahonda,2.1019,-78.7217,27.55,80,100,3.45,CO,1690005986
351,bamboo flat,11.7,92.7167,30.05,79,75,4.12,IN,1690005987
352,timbuktu,16.7735,-3.0074,31.88,37,85,6.12,ML,1690005988
353,suzhou,31.3114,120.6181,31.42,68,99,2.67,CN,1690005888
354,aswan,24.0934,32.907,36.35,13,21,6.91,EG,1690005989
355,bandon,51.7469,-8.7425,15.77,98,100,5.24,IE,1690005990
356,prineville,44.2999,-120.8345,23.39,28,0,3.6,US,1690005990
357,fort mcmurray,56.7268,-111.381,17.93,57,33,0.77,CA,1690005991
358,gomez farias,23.05,-99.15,23.97,90,23,0.74,MX,1690005992
359,taltal,-25.4,-70.4833,16.4,75,92,0.98,CL,1690005993
360,dunkwa,5.9656,-1.78,22.35,98,96,1.58,GH,1690005993
361,malango,-2.9627,119.9001,26.93,63,42,2.26,ID,1690005994
362,nguigmi,14.2495,13.1092,29.1,53,16,2.85,NE,1690005994
363,kenai,60.5544,-151.2583,20.05,76,100,2.06,US,1690005995
364,nadi,-17.8,177.4167,24.0,78,20,1.03,FJ,1690005996
365,contamana,-7.3333,-75.0167,25.0,68,82,0.44,PE,1690005996
366,ulsteinvik,62.3432,5.8487,14.62,79,95,2.24,NO,1690005997
367,urangan,-25.3,152.9,19.8,58,0,7.24,AU,1690005997
368,lihue,21.9789,-159.3672,26.77,80,40,5.66,US,1690005998
369,la foa,-21.7108,165.8276,19.73,67,73,4.3,NC,1690005999
370,quixeramobim,-5.1992,-39.2928,19.16,73,2,1.13,BR,1690006000
371,greymouth,-42.4667,171.2,6.23,80,57,2.56,NZ,1690005919
372,kuanda,56.3161,116.0806,25.64,39,6,0.76,RU,1690006001
373,lagunas,-5.2269,-75.6753,24.43,75,98,0.43,PE,1690006001
374,lindi,-10.0,39.7167,26.93,49,55,4.7,TZ,1690006002
375,ladnun,27.65,74.3833,37.65,35,78,4.35,IN,1690006003
376,robertsport,6.7533,-11.3686,25.2,85,64,5.62,LR,1690006004
377,ceres,37.5949,-120.9577,30.97,50,0,2.06,US,1690006004
378,sur,22.5667,59.5289,32.23,60,93,1.9,OM,1690006005
379,loen,7.7601,168.2307,27.36,76,100,2.44,MH,1690006006
380,batticaloa,7.7102,81.6924,34.08,42,98,7.41,LK,1690006006
381,reggane,26.7158,0.1714,33.83,11,0,6.05,DZ,1690006007
382,tarfaya,27.9358,-12.9218,21.01,89,27,10.8,MA,1690006008
383,lib,8.3122,167.3766,27.96,75,100,2.07,MH,1690006009
384,alesund,62.4723,6.1549,14.63,84,40,3.6,NO,1690005923
385,saudarkrokur,65.7461,-19.6394,9.39,79,99,1.17,IS,1690006010
386,caratinga,-19.7897,-42.1392,15.97,87,100,1.44,BR,1690006011
387,trashi yangtse,27.6116,91.498,26.19,70,50,3.24,BT,1690006011
388,new norfolk,-42.7826,147.0587,13.72,94,96,1.06,AU,1690006012
389,kyenjojo,0.6328,30.6214,22.61,36,96,2.61,UG,1690006012
390,arilje,43.7531,20.0956,19.2,83,2,0.68,RS,1690006013
391,mainit,9.535,125.5231,27.24,85,79,6.25,PH,1690006014
392,wynyard,-41.0,145.7167,11.37,90,100,2.61,AU,1690006015
393,sao joao da barra,-21.6403,-41.0511,19.98,72,33,3.2,BR,1690006015
394,aripuana,-9.1667,-60.6333,19.7,53,0,0.79,BR,1690006016
395,vorkuta,67.5,64.0,22.53,65,100,3.65,RU,1690006017
396,mossendjo,-2.9506,12.7261,17.68,93,82,1.23,CG,1690006017
397,curup,-3.4667,102.5333,26.56,73,43,1.35,ID,1690006018
398,maintirano,-18.0667,44.0167,25.45,69,10,2.53,MG,1690006019
399,sinabang,2.4803,96.3801,29.36,67,95,1.91,ID,1690006019
400,north las vegas,36.1989,-115.1175,39.5,13,0,4.02,US,1690006020
401,bondoukou,8.0333,-2.8,21.51,97,99,3.98,CI,1690006021
402,noosa heads,-26.3833,153.15,20.06,58,0,6.28,AU,1690006015
403,nagqu,31.5,92.0,16.72,36,57,1.74,CN,1690005862
404,cartagena,10.3997,-75.5144,27.79,89,0,1.54,CO,1690006023
405,clarksville,36.5298,-87.3595,22.14,91,100,2.06,US,1690006024
406,rio preto da eva,-2.6994,-59.6997,24.43,63,56,0.92,BR,1690006024
407,upper grand lagoon,30.1633,-85.7408,29.49,84,2,2.24,US,1690006025
408,muroto-misakicho,33.2833,134.15,26.8,84,8,4.52,JP,1690005821
409,margate,51.3813,1.3862,14.37,78,100,1.79,GB,1690006027
410,lazaro cardenas,17.9583,-102.2,26.86,87,29,0.94,MX,1690006027
411,las toscas,-28.3529,-59.258,26.81,36,100,8.05,AR,1690006028
412,saint-pierre,-21.3393,55.4781,24.76,88,100,9.77,RE,1690005895
413,yurga,55.7231,84.8861,28.04,46,82,5.37,RU,1690006029
414,atafu village,-8.5421,-172.5159,28.74,73,20,4.66,TK,1690006030
415,port saint john's,-31.6229,29.5448,15.99,58,68,2.81,ZA,1690006030
416,dem'yanovo,60.3511,47.0842,18.71,63,81,3.7,RU,1690006031
417,manching,48.7166,11.4939,16.85,78,2,1.03,DE,1690006033
418,portage,41.1667,-81.1998,16.39,85,1,2.01,US,1690006034
419,yaring,6.8662,101.3689,31.26,62,99,5.71,TH,1690006034
420,nacala,-14.5428,40.6728,24.26,69,26,5.02,MZ,1690006035
421,susuman,62.7833,148.1667,24.11,47,81,6.03,RU,1690005819
422,wad az zaki,14.4619,32.2065,30.41,53,79,10.13,SD,1690006036
423,labytnangi,66.6572,66.4183,22.88,66,98,5.81,RU,1690006037
424,itoman,26.1247,127.6694,32.01,74,75,5.66,JP,1690005835
425,jeronimo monteiro,-20.7894,-41.395,16.67,92,80,0.11,BR,1690006038
426,madimba,-10.4,40.3333,25.07,70,22,6.3,TZ,1690006039
427,nuuk,64.1835,-51.7216,7.34,100,75,0.51,GL,1690006040
428,hirara,24.8,125.2833,29.33,76,93,4.79,JP,1690005742
429,teshi old town,5.5836,-0.1072,24.23,90,85,5.05,GH,1690006041
430,kogalym,62.2654,74.4791,24.51,53,78,5.71,RU,1690006042
431,mar del plata,-38.0023,-57.5575,16.72,93,100,1.34,AR,1690006043
432,daru,-9.0763,143.2092,26.33,69,61,6.17,PG,1690006043
433,taunggyi,20.7833,97.0333,25.32,73,55,1.04,MM,1690006044
434,kurnool,15.8309,78.0425,29.02,63,94,10.39,IN,1690005888
435,mossel bay,-34.1831,22.146,7.96,69,100,0.97,ZA,1690006045
436,lerwick,60.1545,-1.1494,12.0,83,35,2.74,GB,1690006046
437,marsabit,2.3284,37.9899,19.43,61,53,10.94,KE,1690006046
438,koungheul,13.9833,-14.8,26.22,83,52,3.06,SN,1690006047
439,zheleznogorsk-ilimskiy,56.5768,104.1217,30.12,28,0,0.53,RU,1690006048
440,binzhou,37.3667,118.0167,30.01,62,73,3.07,CN,1690006048
441,atar,20.5169,-13.0499,31.51,27,65,0.74,MR,1690006049
442,saint-joseph,-21.3667,55.6167,24.15,82,79,7.21,RE,1690006050
443,quesnel,52.9999,-122.5029,14.98,90,20,2.07,CA,1690006051
444,yinchuan,38.4681,106.2731,33.62,15,6,1.89,CN,1690005926
445,mantua,45.1667,10.7833,23.38,89,35,1.34,IT,1690006054
446,srivardhan,18.0333,73.0167,25.71,92,100,4.58,IN,1690006054
447,kourou,5.1552,-52.6478,24.03,90,68,3.03,GF,1690006055
448,frutal,-20.0247,-48.9406,18.26,67,12,2.87,BR,1690006056
449,coahuayana de hidalgo,18.7,-103.6583,26.35,87,89,0.9,MX,1690006057
450,san patricio,28.017,-97.5169,29.36,79,1,4.31,US,1690006057
451,pangoa,-12.1167,-73.0,21.56,75,84,1.11,PE,1690006058
452,zlynka,52.4267,31.7378,20.9,62,100,1.98,RU,1690006059
453,callao,-12.0667,-77.15,21.16,73,100,6.17,PE,1690006060
454,ewo,-0.8725,14.8206,25.6,56,75,3.72,CG,1690006060
455,carutapera,-1.195,-46.02,22.39,89,6,1.93,BR,1690006061
456,aral,40.5156,81.2636,38.83,12,22,6.32,CN,1690006061
457,chuzhou,32.3219,118.2978,31.58,72,92,3.9,CN,1690006062
458,twon-brass,4.3151,6.2418,25.37,86,100,7.53,NG,1690006063
459,molchanovo,57.5817,83.7692,26.54,52,57,2.61,RU,1690006063
460,iquique,-20.2208,-70.1431,18.02,69,5,2.22,CL,1690006064
461,hami,42.8,93.45,35.76,12,99,6.8,CN,1690006064
462,dzhetygara,52.1908,61.2006,25.23,40,80,5.1,KZ,1690006065
463,ritchie,-29.038,24.6028,8.61,87,6,7.31,ZA,1690006066
464,turkmenbasy,40.0222,52.9552,33.99,24,31,4.99,TM,1690006066
465,awjilah,29.1081,21.2869,30.92,33,0,1.96,LY,1690006067
466,san martin,-33.081,-68.4681,10.12,55,26,5.24,AR,1690006005
467,ndele,8.4109,20.6473,23.16,94,97,1.51,CF,1690006068
468,tukrah,32.5341,20.5791,30.44,44,0,2.76,LY,1690006069
469,dzhalagash,45.0833,64.6667,32.69,20,68,5.96,KZ,1690006070
470,rwamagana,-1.9487,30.4347,16.69,42,61,2.48,RW,1690006070
471,port douglas,-16.4833,145.4667,23.73,64,15,3.65,AU,1690006071
472,sabang,5.8933,95.3214,28.72,75,95,10.88,ID,1690006071
473,bolnisi,41.4479,44.5384,25.77,51,0,1.3,GE,1690006072
474,axim,4.8699,-2.2405,23.88,91,88,4.08,GH,1690006073
475,kristiansund,63.1115,7.732,14.03,93,75,0.0,NO,1690006074
476,al muharraq,26.2572,50.6119,40.1,35,0,2.57,BH,1690006074
477,angaur state,6.906,134.13,28.38,79,100,6.13,PW,1690006075
478,island harbour,50.724,-1.2758,16.63,84,97,1.79,GB,1690006076
479,qamdo,31.1667,97.2333,17.4,27,5,0.07,CN,1690006076
480,mili,6.0815,171.735,27.88,74,99,2.0,MH,1690006077
481,agadez,19.75,10.25,31.15,21,19,3.58,NE,1690005826
482,pauini,-7.7136,-66.9764,21.69,65,0,0.51,BR,1690006079
483,sovata,46.5833,25.0667,20.38,86,79,2.07,RO,1690006080
484,korablino,53.9164,40.0133,18.89,63,31,4.04,RU,1690006081
485,quellon,-43.1167,-73.6167,6.14,93,100,2.06,CL,1690006082
486,mount pleasant,32.7941,-79.8626,27.78,82,20,0.89,US,1690006082
487,shimokizukuri,40.8061,140.3861,29.18,71,68,1.88,JP,1690006083
488,altai,46.3722,96.2583,21.44,28,56,4.66,MN,1690006083
489,almeirim,-1.5233,-52.5817,23.06,77,38,1.59,BR,1690006084
490,jinhua,29.1078,119.6547,30.36,75,99,0.67,CN,1690005915
491,jayapura,-2.5333,140.7,34.66,67,78,2.38,ID,1690005753
492,as sulayyil,20.4607,45.5779,39.22,7,84,1.85,SA,1690006087
493,fort bragg,35.139,-79.006,26.06,81,0,0.45,US,1690006088
494,san clemente,33.427,-117.612,24.87,89,17,2.68,US,1690006088
495,san agustin de valle fertil,-30.6335,-67.4682,17.55,22,99,2.31,AR,1690006089
496,sosnogorsk,63.6023,53.8817,16.78,76,100,2.64,RU,1690006091
497,cururupu,-1.8283,-44.8683,22.42,89,7,0.95,BR,1690006092
498,bowen,-20.0167,148.2333,22.8,63,61,4.6,AU,1690006093
499,hilo,19.7297,-155.09,27.93,87,100,1.54,US,1690006094
500,sinazongwe,-17.2614,27.4618,19.63,63,3,3.2,ZM,1690006095
501,shijiang,27.0819,110.7933,34.78,53,88,4.46,CN,1690006095
502,ust'-kulom,61.6864,53.6902,15.98,87,99,3.03,RU,1690006096
503,happy valley-goose bay,53.3168,-60.3315,18.73,61,97,3.15,CA,1690006097
504,namdrik,5.5994,168.1028,26.61,80,100,3.14,MH,1690006097
505,ribeira brava,32.65,-17.0667,22.35,72,1,2.84,PT,1690006098
506,kiruna,67.8557,20.2251,6.51,93,100,3.6,SE,1690006099
507,ushtobe,45.2514,77.9838,36.3,14,0,2.66,KZ,1690006099
508,souillac,-20.5167,57.5167,23.62,65,4,7.49,MU,1690006100
509,suntar,62.1444,117.6319,28.39,45,91,2.63,RU,1690006100
510,east end,34.5507,-92.341,23.49,92,83,1.93,US,1690006101
511,pandan,14.0453,124.1694,29.7,72,85,5.21,PH,1690006102
512,howard springs,-12.497,131.047,32.95,25,22,1.59,AU,1690006102
513,boca suno,-0.7167,-77.1333,20.58,99,100,1.05,EC,1690006104
514,hibbing,47.4272,-92.9377,15.79,100,0,1.54,US,1690006104
515,sheridan,44.8333,-106.9173,20.17,69,0,2.06,US,1690006105
516,essaouira,31.5125,-9.77,20.07,84,0,10.83,MA,1690006106
517,sovetskaya gavan',48.9723,140.2878,22.68,75,99,2.26,RU,1690006106
518,truth or consequences,33.1284,-107.2528,29.39,48,100,5.66,US,1690006107
519,auki,-8.7676,160.7034,27.17,86,84,1.71,SB,1690006108
520,alofi,-19.0595,-169.9187,24.99,91,22,4.7,NU,1690006108
521,ketchikan,55.3422,-131.6461,16.26,94,100,2.06,US,1690006109
522,plettenberg bay,-34.0527,23.3716,11.35,64,98,1.18,ZA,1690006109
523,fada,9.5667,8.3,20.76,90,100,0.61,NG,1690006110
524,mohacs,45.9931,18.6831,19.7,76,29,3.34,HU,1690006111
525,gafsa,34.425,8.7842,32.79,18,0,0.74,TN,1690006112
526,lionel town,17.8101,-77.2406,26.17,86,25,3.92,JM,1690006112
527,colesberg,-30.72,25.0972,7.85,87,61,7.69,ZA,1690006113
528,jilib,0.4883,42.7854,28.29,63,82,5.36,SO,1690006114
529,itacoatiara,-3.1431,-58.4442,26.17,63,98,1.37,BR,1690006114
530,northam,51.0333,-4.2167,14.66,94,90,7.19,GB,1690006115
531,cabimas,10.3883,-71.4399,28.73,75,96,4.4,VE,1690006115
532,fallon,39.4735,-118.7774,29.4,19,0,2.57,US,1690006116
533,black river,18.0264,-77.8487,26.12,81,20,1.33,JM,1690006117
534,new iberia,30.0035,-91.8187,28.36,83,0,2.57,US,1690006118
535,fortaleza,-3.7227,-38.5247,25.07,83,20,3.09,BR,1690006118
536,zwickau,50.7167,12.4833,15.82,79,7,3.47,DE,1690006119
537,mahina,-17.5065,-149.489,22.87,68,20,1.03,PF,1690006119
538,ramshir,30.8946,49.4092,41.63,7,0,2.88,IR,1690006120
539,belo sur tsiribihina,-19.7,44.55,26.62,61,73,3.86,MG,1690006121
540,yanggu,36.1106,115.7753,31.42,56,47,2.96,CN,1690006121
541,tshikapa,-6.4167,20.8,24.33,30,21,1.08,CD,1690006122
542,neverkino,52.7854,46.7417,19.31,68,27,5.15,RU,1690006123
543,vigia,-0.8583,-48.1417,22.83,87,5,2.87,BR,1690006124
544,brooks,50.5834,-111.8851,17.58,70,82,2.01,CA,1690006125
545,araria,26.15,87.5167,33.96,59,67,6.39,IN,1690005876
546,dunedin,-45.8742,170.5036,6.0,69,6,3.24,NZ,1690005918
547,veraval,20.9,70.3667,28.74,81,99,7.27,IN,1690006127
548,tuy hoa,13.0833,109.3,31.67,60,99,4.06,VN,1690005841
549,uvira,-3.4067,29.1458,24.78,52,19,0.87,CD,1690006128
550,mosjoen,65.836,13.1908,13.29,88,100,0.0,NO,1690006129
551,katsuura,35.1333,140.3,29.01,71,5,4.97,JP,1690005875
552,worland,44.0169,-107.9554,22.56,56,0,3.6,US,1690006130
553,qaryat suluq,31.6682,20.2521,32.01,22,0,0.83,LY,1690006130
554,oliver,49.1831,-119.5524,21.31,66,65,1.99,CA,1690006132
555,kununurra,-15.7667,128.7333,30.99,23,0,6.17,AU,1690005896
556,acarau,-2.8856,-40.12,23.23,87,13,5.32,BR,1690006133
557,scheveningen,52.1046,4.2756,16.64,89,100,3.09,NL,1690006134
558,seydi,39.4816,62.9137,36.69,14,0,9.7,TM,1690006134
559,kayangel,8.0823,134.7173,28.14,78,100,4.51,PW,1690006135
560,villa de soto,-30.8552,-64.9995,17.83,67,92,2.93,AR,1690006136
561,revda,56.801,59.9303,17.63,72,100,4.52,RU,1690005839
562,xacmaz,41.4635,48.806,30.89,46,41,5.47,AZ,1690006138
